<locations>
	<entry>
		<title>1. Peters Pub - 6pm</title>
		<latitude>53.340936</latitude>
		<longitude>-6.263291</longitude>
		<hours><![CDATA[replace_with_content]]></hours>
	</entry>
	<entry>
		<title>2. P Mac's - 6.30pm</title>
		<latitude>53.341148</latitude>
		<longitude>-6.264292</longitude>,
		<hours><![CDATA[replace_with_content]]></hours>
	</entry>
	<entry>
		<title>3. Grogan's - 7pm</title>
		<latitude>53.342211</latitude>
		<longitude>-6.262531</longitude>
		<hours><![CDATA[This one is specially for the iQ Alumni of Derek & Conor]]></hours>
	</entry>
	<entry>
		<title>4. Market Bar - 7.30pm</title>
		<latitude>53.342039</latitude>
		<longitude>-6.264042</longitude>
		<hours><![CDATA[replace_with_content]]></hours>
	</entry>
	<entry>
		<title>5. Hogans - 8pm</title>
		<latitude>53.341992</latitude>
		<longitude>-6.2645969</longitude>
		<hours><![CDATA["I really like Hogans because, and this may take some explaining, it's really easy to use. What I mean by that is that this pub operates completely without hassle. The furniture is of the really simple, no frills, "place ass here" school and I think that has an effect on everyones mood. It's a good old school style that encourages conversation, a very positive feature in any pub." - Courtesy of Yelp.ie]]></hours>
	</entry>
	<entry>
		<title>6. The Swan Bar - 8.30pm</title>
		<latitude>53.33965</latitude>
		<longitude>-6.2657167</longitude>
		<hours><![CDATA[replace_with_content]]></hours>
	</entry>
	<entry>
		<title>7. Against the Grain - 9pm</title>
		<latitude>53.3372039</latitude>
		<longitude>-6.2656685</longitude>
		<hours><![CDATA[replace_with_content]]></hours>
	</entry>
	<entry>
		<title>8. Solas - 9.30pm</title>
		<latitude>53.336977</latitude>
		<longitude>-6.2656537</longitude>
		<hours><![CDATA[replace_with_content]]></hours>
	</entry>
	<entry>
		<title>9. Whelan's - 10pm</title>
		<latitude>53.336576</latitude>
		<longitude>-6.265646</longitude>
		<hours><![CDATA["Treplace_with_content]]></hours>
	</entry>
	<entry>
		<title>10. Anseo - 10.30pm</title>
		<latitude>53.335279</latitude>
		<longitude>-6.265132</longitude>
		<hours><![CDATA[replace_with_content]]></hours>
	</entry>
	<entry>
		<title>11. The Bleeding Horse - 11pm</title>
		<latitude>53.333529</latitude>
		<longitude>-6.264981</longitude>
		<hours><![CDATA[replace_with_content]]></hours>
	</entry>
	<entry>
		<title>12. The Bernard Shaw - 11.30pm</title>
		<latitude>53.331715</latitude>
		<longitude>-6.264575</longitude>
		<hours><![CDATA[replace_with_content]]></hours>
	</entry>
</locations>